"","province_city","province","total_cases","latitude","longitude","elementary_school_count","kindergarten_count","university_count","academy_ratio","elderly_population_ratio","elderly_alone_ratio","nursing_home_count","province_avg_temp","province_avg_precip","province_avg_rel_hum"
"1","Seoul_Gangnam-gu","Seoul",83,37.518421,127.047222,33,38,0,4.18,13.17,4.3,3088,13.0379415347138,1.41461632155907,57.7298416565164
"2","Seoul_Gangdong-gu","Seoul",35,37.530492,127.123837,27,32,0,1.54,14.55,5.4,1023,13.0379415347138,1.41461632155907,57.7298416565164
"3","Seoul_Gangbuk-gu","Seoul",24,37.639938,127.025508,14,21,0,0.67,19.49,8.5,628,13.0379415347138,1.41461632155907,57.7298416565164
"4","Seoul_Gangseo-gu","Seoul",78,37.551166,126.849506,36,56,1,1.17,14.39,5.7,1080,13.0379415347138,1.41461632155907,57.7298416565164
"5","Seoul_Gwanak-gu","Seoul",113,37.47829,126.951502,22,33,1,0.89,15.12,4.9,909,13.0379415347138,1.41461632155907,57.7298416565164
"6","Seoul_Gwangjin-gu","Seoul",17,37.538712,127.082366,22,33,3,1.16,13.75,4.8,723,13.0379415347138,1.41461632155907,57.7298416565164
"7","Seoul_Guro-gu","Seoul",85,37.495632,126.88765,26,34,3,1,16.21,5.7,741,13.0379415347138,1.41461632155907,57.7298416565164
"8","Seoul_Geumcheon-gu","Seoul",32,37.456852,126.895229,18,19,0,0.96,16.15,6.7,475,13.0379415347138,1.41461632155907,57.7298416565164
"9","Seoul_Nowon-gu","Seoul",43,37.654259,127.056294,42,66,6,1.39,15.4,7.4,952,13.0379415347138,1.41461632155907,57.7298416565164
"10","Seoul_Dobong-gu","Seoul",62,37.668952,127.047082,23,26,1,0.95,17.89,7.2,485,13.0379415347138,1.41461632155907,57.7298416565164
"11","Seoul_Dongdaemun-gu","Seoul",38,37.574552,127.039721,21,31,4,1.06,17.26,6.7,832,13.0379415347138,1.41461632155907,57.7298416565164
"12","Seoul_Dongjak-gu","Seoul",53,37.510571,126.963604,21,34,3,1.17,15.85,5.2,762,13.0379415347138,1.41461632155907,57.7298416565164
"13","Seoul_Mapo-gu","Seoul",38,37.566283,126.901644,22,24,2,1.83,14.05,4.9,929,13.0379415347138,1.41461632155907,57.7298416565164
"14","Seoul_Seodaemun-gu","Seoul",36,37.579428,126.936771,19,25,6,1.12,16.77,6.2,587,13.0379415347138,1.41461632155907,57.7298416565164
"15","Seoul_Seocho-gu","Seoul",55,37.483804,127.032693,24,27,1,2.6,13.39,3.8,1465,13.0379415347138,1.41461632155907,57.7298416565164
"16","Seoul_Seongdong-gu","Seoul",49,37.563277,127.036647,21,30,2,0.97,14.76,5.3,593,13.0379415347138,1.41461632155907,57.7298416565164
"17","Seoul_Seongbuk-gu","Seoul",33,37.589562,127.0167,29,49,6,1.02,16.15,6,729,13.0379415347138,1.41461632155907,57.7298416565164
"18","Seoul_Songpa-gu","Seoul",55,37.51462,127.106141,40,51,1,1.65,13.1,4.1,1527,13.0379415347138,1.41461632155907,57.7298416565164
"19","Seoul_Yangcheon-gu","Seoul",71,37.517189,126.866618,30,43,0,2.26,13.55,5.5,816,13.0379415347138,1.41461632155907,57.7298416565164
"20","Seoul_Yeongdeungpo-gu","Seoul",62,37.526505,126.89619,23,39,0,1.21,15.6,5.8,1001,13.0379415347138,1.41461632155907,57.7298416565164
"21","Seoul_Yongsan-gu","Seoul",50,37.532768,126.990021,15,13,1,0.68,16.87,6.5,435,13.0379415347138,1.41461632155907,57.7298416565164
"22","Seoul_Eunpyeong-gu","Seoul",53,37.603481,126.929173,31,44,1,1.09,17,6.5,874,13.0379415347138,1.41461632155907,57.7298416565164
"23","Seoul_Jongno-gu","Seoul",22,37.572999,126.979189,13,17,3,1.71,18.27,6.8,668,13.0379415347138,1.41461632155907,57.7298416565164
"24","Seoul_Jung-gu","Seoul",12,37.563988,126.99753,12,14,2,0.94,18.42,7.4,728,13.0379415347138,1.41461632155907,57.7298416565164
"25","Seoul_Jungnang-gu","Seoul",33,37.606832,127.092656,23,31,1,0.7,16.65,6.9,689,13.0379415347138,1.41461632155907,57.7298416565164
"26","Busan_Gangseo-gu","Busan",5,35.212424,128.98068,17,21,0,1.43,11.84,5,147,15.1687576126675,1.89147381242387,62.8419001218027
"27","Busan_Geumjeong-gu","Busan",7,35.243053,129.092163,22,28,4,1.64,19.8,8.4,466,15.1687576126675,1.89147381242387,62.8419001218027
"28","Busan_Gijang-gun","Busan",1,35.244881,129.222253,21,35,0,1.31,15.45,7.4,229,15.1687576126675,1.89147381242387,62.8419001218027
"29","Busan_Nam-gu","Busan",7,35.136789,129.08414,21,27,4,1.24,19.13,7.9,475,15.1687576126675,1.89147381242387,62.8419001218027
"30","Busan_Dong-gu","Busan",1,35.129432,129.04554,7,9,0,0.83,25.42,13.8,239,15.1687576126675,1.89147381242387,62.8419001218027
"31","Busan_Dongnae-gu","Busan",39,35.20506,129.083673,22,31,0,1.98,17.53,7.7,608,15.1687576126675,1.89147381242387,62.8419001218027
"32","Busan_Busanjin-gu","Busan",14,35.163332,129.053058,32,43,3,1.62,19.01,8.7,986,15.1687576126675,1.89147381242387,62.8419001218027
"33","Busan_Buk-gu","Busan",8,35.197483,128.990224,27,37,1,1.35,16.04,8.4,465,15.1687576126675,1.89147381242387,62.8419001218027
"34","Busan_Sasang-gu","Busan",5,35.152777,128.991142,21,31,3,0.78,17,8.1,317,15.1687576126675,1.89147381242387,62.8419001218027
"35","Busan_Saha-gu","Busan",11,35.104642,128.974792,26,42,2,1.34,17.76,8.1,541,15.1687576126675,1.89147381242387,62.8419001218027
"36","Busan_Seo-gu","Busan",6,35.098135,129.024193,11,9,0,1.02,24.36,12.3,235,15.1687576126675,1.89147381242387,62.8419001218027
"37","Busan_Suyeong-gu","Busan",11,35.145805,129.113194,10,22,0,1.56,20.4,8.2,395,15.1687576126675,1.89147381242387,62.8419001218027
"38","Busan_Yeonje-gu","Busan",4,35.176406,129.079566,16,18,2,1.39,18.27,7.8,450,15.1687576126675,1.89147381242387,62.8419001218027
"39","Busan_Haeundae-gu","Busan",22,35.16336,129.163594,33,39,1,1.63,16.53,7.9,814,15.1687576126675,1.89147381242387,62.8419001218027
"40","Daegu_Nam-gu","Daegu",11,35.8463,128.597723,11,15,2,0.85,22.49,10.4,345,13.6487507798342,1.27795371498173,60.3358099878197
"41","Daegu_Dalseo-gu","Daegu",29,35.830128,128.532635,55,78,3,1.72,13.56,6.5,1064,13.6487507798342,1.27795371498173,60.3358099878197
"42","Daegu_Dalseong-gun","Daegu",1,35.77475,128.431314,32,47,1,1.51,12.11,5.4,361,13.6487507798342,1.27795371498173,60.3358099878197
"43","Daegu_Dong-gu","Daegu",10,35.886836,128.635537,32,58,0,1.15,18.81,9,649,13.6487507798342,1.27795371498173,60.3358099878197
"44","Daegu_Buk-gu","Daegu",10,35.892506,128.583779,38,73,4,1.43,13.95,6.3,748,13.6487507798342,1.27795371498173,60.3358099878197
"45","Daegu_Seo-gu","Daegu",7,35.871993,128.559182,17,23,0,0.83,21.29,10.1,374,13.6487507798342,1.27795371498173,60.3358099878197
"46","Daegu_Suseong-gu","Daegu",14,35.858395,128.630551,34,49,1,2.28,15,6.9,948,13.6487507798342,1.27795371498173,60.3358099878197
"47","Daegu_Jung-gu","Daegu",3,35.869551,128.606184,10,12,0,4.03,20.29,9.6,594,13.6487507798342,1.27795371498173,60.3358099878197
"48","Incheon_Ganghwa-gun","Incheon",1,37.747065,126.487777,20,19,1,0.68,31.97,13.9,107,12.6172350791717,1.20560292326431,67.6032886723508
"49","Incheon_Gyeyang-gu","Incheon",55,37.537537,126.737712,26,36,2,1.25,11.81,5.2,477,12.6172350791717,1.20560292326431,67.6032886723508
"50","Incheon_Michuhol-gu","Incheon",69,37.463572,126.65027,29,43,2,0.9,16.29,6.8,643,12.6172350791717,1.20560292326431,67.6032886723508
"51","Incheon_Namdong-gu","Incheon",45,37.44727,126.731429,38,77,0,1.39,12.68,5.5,955,12.6172350791717,1.20560292326431,67.6032886723508
"52","Incheon_Dong-gu","Incheon",5,37.474101,126.643266,8,12,1,0.68,21.62,10.5,122,12.6172350791717,1.20560292326431,67.6032886723508
"53","Incheon_Bupyeong-gu","Incheon",83,37.507031,126.721804,42,66,0,1.27,13.83,6.2,847,12.6172350791717,1.20560292326431,67.6032886723508
"54","Incheon_Seo-gu","Incheon",18,37.545557,126.675994,44,80,0,1.4,10.02,3.9,670,12.6172350791717,1.20560292326431,67.6032886723508
"55","Incheon_Yeonsu-gu","Incheon",45,37.410262,126.678309,23,43,1,1.77,9.48,4,467,12.6172350791717,1.20560292326431,67.6032886723508
"56","Incheon_Jung-gu","Incheon",17,37.473761,126.621693,14,17,0,0.8,14.14,6.7,177,12.6172350791717,1.20560292326431,67.6032886723508
"57","Daejeon_Daedeok-gu","Daejeon",5,36.346713,127.415597,21,29,2,1.35,14.97,6.9,310,13.5433008526188,1.55913520097442,68.4129110840438
"58","Daejeon_Dong-gu","Daejeon",15,36.31204,127.454742,23,35,4,0.93,18.16,8.1,447,13.5433008526188,1.55913520097442,68.4129110840438
"59","Daejeon_Seo-gu","Daejeon",47,36.35553,127.383755,39,78,3,1.81,12.05,4.9,1123,13.5433008526188,1.55913520097442,68.4129110840438
"60","Daejeon_Yuseong-gu","Daejeon",40,36.362226,127.356153,38,75,5,1.54,9.04,3.3,586,13.5433008526188,1.55913520097442,68.4129110840438
"61","Daejeon_Jung-gu","Daejeon",11,36.325735,127.421317,27,43,1,1.43,18.39,8.2,518,13.5433008526188,1.55913520097442,68.4129110840438
"62","Ulsan_Nam-gu","Ulsan",18,35.543833,129.330047,30,44,1,3.23,11.42,4.8,765,14.4386723507917,1.56205846528624,66.1634591961023
"63","Ulsan_Dong-gu","Ulsan",9,35.504806,129.416575,16,25,1,1.73,11.68,4.4,242,14.4386723507917,1.56205846528624,66.1634591961023
"64","Ulsan_Buk-gu","Ulsan",10,35.582685,129.36124,22,45,0,1.73,7.69,3.4,211,14.4386723507917,1.56205846528624,66.1634591961023
"65","Ulsan_Ulju-gun","Ulsan",6,35.522126,129.242507,30,49,2,1.74,13.94,6.7,260,14.4386723507917,1.56205846528624,66.1634591961023
"66","Ulsan_Jung-gu","Ulsan",12,35.569468,129.332773,21,37,0,2.03,14.15,6.5,323,14.4386723507917,1.56205846528624,66.1634591961023
"67","Gyeonggi-do_Gapyeong-gun","Gyeonggi-do",1,37.831297,127.509555,13,14,0,0.88,25.09,12,114,12.7827040194884,1.484287454324,68.8682704019488
"68","Gyeonggi-do_Goyang-si","Gyeonggi-do",53,37.658363,126.831961,84,171,2,1.88,12.82,5.2,1608,12.7827040194884,1.484287454324,68.8682704019488
"69","Gyeonggi-do_Gwacheon-si","Gyeonggi-do",9,37.42915,126.987616,4,7,0,1.36,13.98,5.7,92,12.7827040194884,1.484287454324,68.8682704019488
"70","Gyeonggi-do_Gwangmyeong-si","Gyeonggi-do",28,37.478541,126.864648,25,48,0,1.73,13.25,5.8,530,12.7827040194884,1.484287454324,68.8682704019488
"71","Gyeonggi-do_Gwangju-si","Gyeonggi-do",35,37.429322,127.255153,27,42,2,1.09,12.65,4,406,12.7827040194884,1.484287454324,68.8682704019488
"72","Gyeonggi-do_Guri-si","Gyeonggi-do",11,37.594267,127.129549,16,30,0,1.94,12.88,5.1,418,12.7827040194884,1.484287454324,68.8682704019488
"73","Gyeonggi-do_Gunpo-si","Gyeonggi-do",75,37.361653,126.935206,26,49,1,1.58,12.42,5.4,429,12.7827040194884,1.484287454324,68.8682704019488
"74","Gyeonggi-do_Gimpo-si","Gyeonggi-do",37,37.615238,126.715601,43,90,2,1.74,12.1,4.4,604,12.7827040194884,1.484287454324,68.8682704019488
"75","Gyeonggi-do_Namyangju-si","Gyeonggi-do",47,37.635791,127.216552,64,110,1,1.38,13.44,5,912,12.7827040194884,1.484287454324,68.8682704019488
"76","Gyeonggi-do_Dongducheon-si","Gyeonggi-do",5,37.903568,127.060347,11,19,1,1.03,19.56,9.7,140,12.7827040194884,1.484287454324,68.8682704019488
"77","Gyeonggi-do_Bucheon-si","Gyeonggi-do",162,37.503393,126.766049,64,124,4,1.51,12.77,5.4,1432,12.7827040194884,1.484287454324,68.8682704019488
"78","Gyeonggi-do_Seongnam-si","Gyeonggi-do",173,37.42,127.126703,72,127,3,2.08,13.52,5.6,2095,12.7827040194884,1.484287454324,68.8682704019488
"79","Gyeonggi-do_Suwon-si","Gyeonggi-do",100,37.263376,127.028613,99,192,4,1.72,10.5,4.5,2082,12.7827040194884,1.484287454324,68.8682704019488
"80","Gyeonggi-do_Siheung-si","Gyeonggi-do",27,37.38011,126.803009,46,74,2,1.55,8.86,3.8,622,12.7827040194884,1.484287454324,68.8682704019488
"81","Gyeonggi-do_Ansan-si","Gyeonggi-do",33,37.321863,126.83092,54,94,4,1.49,10.35,4.6,1024,12.7827040194884,1.484287454324,68.8682704019488
"82","Gyeonggi-do_Anseong-si","Gyeonggi-do",4,37.008008,127.279763,35,51,3,1.27,16.95,7.2,271,12.7827040194884,1.484287454324,68.8682704019488
"83","Gyeonggi-do_Anyang-si","Gyeonggi-do",63,37.394258,126.956752,41,79,4,1.86,12.88,5.1,1099,12.7827040194884,1.484287454324,68.8682704019488
"84","Gyeonggi-do_Yangju-si","Gyeonggi-do",9,37.785253,127.045823,33,48,1,1.16,15.23,6.3,252,12.7827040194884,1.484287454324,68.8682704019488
"85","Gyeonggi-do_Osan-si","Gyeonggi-do",8,37.149854,127.077461,23,50,2,1.25,9.09,3.6,314,12.7827040194884,1.484287454324,68.8682704019488
"86","Gyeonggi-do_Yongin-si","Gyeonggi-do",104,37.240985,127.17805,103,169,7,1.82,12.77,4.1,1429,12.7827040194884,1.484287454324,68.8682704019488
"87","Gyeonggi-do_Uiwang-si","Gyeonggi-do",10,37.344649,126.968299,14,24,1,1.09,12.99,5,189,12.7827040194884,1.484287454324,68.8682704019488
"88","Gyeonggi-do_Uijeongbu-si","Gyeonggi-do",47,37.738058,127.033716,33,62,1,1.59,14.61,6.4,729,12.7827040194884,1.484287454324,68.8682704019488
"89","Gyeonggi-do_Icheon-si","Gyeonggi-do",15,37.272169,127.434991,31,51,2,1.76,13.71,5.8,333,12.7827040194884,1.484287454324,68.8682704019488
"90","Gyeonggi-do_Paju-si","Gyeonggi-do",16,37.759818,126.7799,57,98,1,1.34,13.52,5.3,573,12.7827040194884,1.484287454324,68.8682704019488
"91","Gyeonggi-do_Pyeongtaek-si","Gyeonggi-do",61,36.992293,127.112709,58,108,3,1.39,12.13,5.6,765,12.7827040194884,1.484287454324,68.8682704019488
"92","Gyeonggi-do_Pocheon-si","Gyeonggi-do",19,37.894881,127.200346,31,33,2,0.89,18.92,8.2,209,12.7827040194884,1.484287454324,68.8682704019488
"93","Gyeonggi-do_Hanam-si","Gyeonggi-do",12,37.53926,127.214944,20,34,0,1.16,12.43,4.8,381,12.7827040194884,1.484287454324,68.8682704019488
"94","Gyeonggi-do_Hwaseong-si","Gyeonggi-do",41,37.199536,126.83133,92,167,6,1.72,8.58,3.3,1001,12.7827040194884,1.484287454324,68.8682704019488
"95","Gangwon-do_Gangneung-si","Gangwon-do",9,37.75197,128.875928,34,36,4,1.9,20.46,9.6,347,13.8580998781973,1.45797807551766,55.6282582216809
"96","Gangwon-do_Samcheok-si","Gangwon-do",1,37.449899,129.165365,19,17,0,1.01,24.26,13,94,13.8580998781973,1.45797807551766,55.6282582216809
"97","Gangwon-do_Sokcho-si","Gangwon-do",3,38.207022,128.591861,12,11,0,1.54,18.33,9.7,165,13.8580998781973,1.45797807551766,55.6282582216809
"98","Gangwon-do_Yeongwol-gun","Gangwon-do",1,37.183694,128.461835,13,15,1,0.87,28.54,15.4,56,13.8580998781973,1.45797807551766,55.6282582216809
"99","Gangwon-do_Wonju-si","Gangwon-do",25,37.341963,127.919668,50,71,4,1.71,14.46,6.7,597,13.8580998781973,1.45797807551766,55.6282582216809
"100","Gangwon-do_Inje-gun","Gangwon-do",1,38.069682,128.170335,13,15,0,0.88,19.88,10.4,46,13.8580998781973,1.45797807551766,55.6282582216809
"101","Gangwon-do_Cheorwon-gun","Gangwon-do",11,38.146693,127.3134,16,12,0,1.14,21.8,11.1,70,13.8580998781973,1.45797807551766,55.6282582216809
"102","Gangwon-do_Chuncheon-si","Gangwon-do",10,37.881281,127.730088,40,43,5,1.5,17.1,7.6,472,13.8580998781973,1.45797807551766,55.6282582216809
"103","Gangwon-do_Taebaek-si","Gangwon-do",1,37.16406,128.985736,12,12,1,1.16,23.88,12.8,64,13.8580998781973,1.45797807551766,55.6282582216809
"104","Gangwon-do_Hoengseong-gun","Gangwon-do",1,37.491702,127.985042,16,13,2,0.97,28.22,13.3,69,13.8580998781973,1.45797807551766,55.6282582216809
"105","Chungcheongbuk-do_Goesan-gun","Chungcheongbuk-do",11,36.81534,127.786651,14,15,1,0.36,33.01,16.5,64,13.6487507798342,1.25021698698078,63.7191649208283
"106","Chungcheongbuk-do_Danyang-gun","Chungcheongbuk-do",1,36.984657,128.365476,11,11,0,0.5,29.52,15.8,52,13.6487507798342,1.25021698698078,63.7191649208283
"107","Chungcheongbuk-do_Okcheon-gun","Chungcheongbuk-do",1,36.306367,127.57128,12,17,1,0.63,28.83,14.9,107,13.6487507798342,1.25021698698078,63.7191649208283
"108","Chungcheongbuk-do_Eumseong-gun","Chungcheongbuk-do",7,36.940237,127.690502,21,24,2,0.88,20.33,9.2,169,13.6487507798342,1.25021698698078,63.7191649208283
"109","Chungcheongbuk-do_Jeungpyeong-gun","Chungcheongbuk-do",2,36.785301,127.581481,4,5,0,1.39,16.59,8.7,62,13.6487507798342,1.25021698698078,63.7191649208283
"110","Chungcheongbuk-do_Jincheon-gun","Chungcheongbuk-do",1,36.855374,127.435635,15,16,0,1.15,16.16,8.3,121,13.6487507798342,1.25021698698078,63.7191649208283
"111","Chungcheongbuk-do_Cheongju-si","Chungcheongbuk-do",20,36.641876,127.488759,92,131,8,1.67,12.82,6,1420,13.6487507798342,1.25021698698078,63.7191649208283
"112","Chungcheongbuk-do_Chungju-si","Chungcheongbuk-do",13,36.991009,127.925946,37,44,2,1.39,19.07,9,347,13.6487507798342,1.25021698698078,63.7191649208283
"113","Chungcheongnam-do_Gyeryong-si","Chungcheongnam-do",3,36.274481,127.248557,5,8,0,1.3,11.3,5.1,61,13.6487507798342,1.15978062157221,63.7191649208283
"114","Chungcheongnam-do_Gongju-si","Chungcheongnam-do",3,36.446508,127.11903,28,34,2,1.16,25.2,11.7,221,13.6487507798342,1.15978062157221,63.7191649208283
"115","Chungcheongnam-do_Nonsan-si","Chungcheongnam-do",6,36.187076,127.098959,33,32,2,1.03,25.54,13.4,262,13.6487507798342,1.15978062157221,63.7191649208283
"116","Chungcheongnam-do_Buyeo-gun","Chungcheongnam-do",13,36.275673,126.90979,24,27,1,0.79,33.3,17.4,137,13.6487507798342,1.15978062157221,63.7191649208283
"117","Chungcheongnam-do_Seosan-si","Chungcheongnam-do",9,36.784751,126.450289,29,39,1,1.3,18.01,8.4,261,13.6487507798342,1.15978062157221,63.7191649208283
"118","Chungcheongnam-do_Seocheon-gun","Chungcheongnam-do",1,36.080266,126.691394,18,18,0,0.97,35.25,18.9,116,13.6487507798342,1.15978062157221,63.7191649208283
"119","Chungcheongnam-do_Asan-si","Chungcheongnam-do",18,36.789844,127.00242,46,60,3,1.29,12.89,6.1,435,13.6487507798342,1.15978062157221,63.7191649208283
"120","Chungcheongnam-do_Cheonan-si","Chungcheongnam-do",110,36.81498,127.113868,75,112,6,1.91,10.42,4.5,1069,13.6487507798342,1.15978062157221,63.7191649208283
"121","Chungcheongnam-do_Taean-gun","Chungcheongnam-do",1,36.745577,126.29795,19,20,0,0.83,29.98,13.8,112,13.6487507798342,1.15978062157221,63.7191649208283
"122","Chungcheongnam-do_Hongseong-gun","Chungcheongnam-do",4,36.60126,126.660772,21,26,2,1.35,23.11,11.3,179,13.6487507798342,1.15978062157221,63.7191649208283
"123","Jeollabuk-do_Gunsan-si","Jeollabuk-do",4,35.967631,126.737011,56,67,5,2.04,18.07,8.8,494,13.7858099878197,1.39177831912302,71.7550548112059
"124","Jeollabuk-do_Gimje-si","Jeollabuk-do",3,35.803506,126.880507,36,40,0,1.11,30.89,17.9,188,13.7858099878197,1.39177831912302,71.7550548112059
"125","Jeollabuk-do_Iksan-si","Jeollabuk-do",2,35.948229,126.957792,60,83,2,2.18,18.85,9.3,556,13.7858099878197,1.39177831912302,71.7550548112059
"126","Jeollabuk-do_Jangsu-gun","Jeollabuk-do",1,35.647281,127.521204,8,8,0,0.58,32.87,19.1,44,13.7858099878197,1.39177831912302,71.7550548112059
"127","Jeollabuk-do_Jeonju-si","Jeollabuk-do",8,35.824069,127.14805,73,120,7,3.02,14.4,6.8,1381,13.7858099878197,1.39177831912302,71.7550548112059
"128","Jeollanam-do_Gwangyang-si","Jeollanam-do",1,34.940611,127.696142,28,37,2,1.63,12.65,6.8,210,14.8887332521315,1.84196102314251,63.7191649208283
"129","Jeollanam-do_Mokpo-si","Jeollanam-do",5,34.811809,126.392198,33,55,3,2.11,15.88,8.8,406,14.8887332521315,1.84196102314251,63.7191649208283
"130","Jeollanam-do_Muan-gun","Jeollanam-do",2,34.990368,126.481653,18,21,2,2.12,20.82,11.8,141,14.8887332521315,1.84196102314251,63.7191649208283
"131","Jeollanam-do_Suncheon-si","Jeollanam-do",2,34.950592,127.487396,42,61,3,1.94,15.2,8.3,452,14.8887332521315,1.84196102314251,63.7191649208283
"132","Jeollanam-do_Yeosu-si","Jeollanam-do",3,34.760421,127.662287,50,73,1,1.85,18.59,9.5,471,14.8887332521315,1.84196102314251,63.7191649208283
"133","Jeollanam-do_Hwasun-gun","Jeollanam-do",1,35.064456,126.986643,16,19,0,1.32,26.14,17.4,132,14.8887332521315,1.84196102314251,63.7191649208283
"134","Gyeongsangbuk-do_Gyeongsan-si","Gyeongsangbuk-do",638,35.825056,128.741544,31,61,10,1.34,16.18,7,427,13.6487507798342,1.29287454323995,63.7191649208283
"135","Gyeongsangbuk-do_Gyeongju-si","Gyeongsangbuk-do",52,35.856185,129.224796,43,61,4,1.34,21.66,11,407,13.6487507798342,1.29287454323995,63.7191649208283
"136","Gyeongsangbuk-do_Goryeong-gun","Gyeongsangbuk-do",10,35.72615,128.26295,9,9,0,0.62,30.17,15.9,62,13.6487507798342,1.29287454323995,63.7191649208283
"137","Gyeongsangbuk-do_Gumi-si","Gyeongsangbuk-do",78,36.119641,128.344295,50,104,3,1.96,9.08,4.3,616,13.6487507798342,1.29287454323995,63.7191649208283
"138","Gyeongsangbuk-do_Gunwi-gun","Gyeongsangbuk-do",6,36.242926,128.572939,7,8,0,0.25,38.87,21.6,41,13.6487507798342,1.29287454323995,63.7191649208283
"139","Gyeongsangbuk-do_Gimcheon-si","Gyeongsangbuk-do",24,36.139875,128.11365,27,37,2,0.89,22.35,12.2,212,13.6487507798342,1.29287454323995,63.7191649208283
"140","Gyeongsangbuk-do_Mungyeong-si","Gyeongsangbuk-do",4,36.586831,128.18709,17,26,1,1.18,29.25,17.1,147,13.6487507798342,1.29287454323995,63.7191649208283
"141","Gyeongsangbuk-do_Bonghwa-gun","Gyeongsangbuk-do",71,36.893099,128.732568,14,17,0,0.37,35.26,20,47,13.6487507798342,1.29287454323995,63.7191649208283
"142","Gyeongsangbuk-do_Sangju-si","Gyeongsangbuk-do",15,36.410977,128.159024,28,35,0,1.03,30.09,17.3,186,13.6487507798342,1.29287454323995,63.7191649208283
"143","Gyeongsangbuk-do_Seongju-gun","Gyeongsangbuk-do",23,35.919325,128.283237,12,15,0,0.59,30.89,15.9,84,13.6487507798342,1.29287454323995,63.7191649208283
"144","Gyeongsangbuk-do_Andong-si","Gyeongsangbuk-do",53,36.568441,128.729551,30,42,3,1.57,23.95,12.4,290,13.6487507798342,1.29287454323995,63.7191649208283
"145","Gyeongsangbuk-do_Yeongdeok-gun","Gyeongsangbuk-do",2,36.415059,129.366107,9,11,0,0.75,36.45,22.3,81,13.6487507798342,1.29287454323995,63.7191649208283
"146","Gyeongsangbuk-do_Yeongyang-gun","Gyeongsangbuk-do",2,36.666664,129.112401,6,8,0,0.35,36.36,21.1,24,13.6487507798342,1.29287454323995,63.7191649208283
"147","Gyeongsangbuk-do_Yeongju-si","Gyeongsangbuk-do",5,36.805702,128.623958,19,26,2,1.61,26.22,13.2,191,13.6487507798342,1.29287454323995,63.7191649208283
"148","Gyeongsangbuk-do_Yeongcheon-si","Gyeongsangbuk-do",37,35.973268,128.938603,18,23,1,0.83,27.32,15.3,192,13.6487507798342,1.29287454323995,63.7191649208283
"149","Gyeongsangbuk-do_Yecheon-gun","Gyeongsangbuk-do",44,36.646707,128.437435,12,15,1,1.09,29.79,18.4,97,13.6487507798342,1.29287454323995,63.7191649208283
"150","Gyeongsangbuk-do_Uiseong-gun","Gyeongsangbuk-do",41,36.352718,128.697088,16,16,0,0.32,40.26,23.7,108,13.6487507798342,1.29287454323995,63.7191649208283
"151","Gyeongsangbuk-do_Cheongdo-gun","Gyeongsangbuk-do",43,35.647361,128.734382,11,14,0,0.63,36.55,21,85,13.6487507798342,1.29287454323995,63.7191649208283
"152","Gyeongsangbuk-do_Cheongsong-gun","Gyeongsangbuk-do",2,36.436301,129.05708,8,8,0,0.51,36.08,19.4,55,13.6487507798342,1.29287454323995,63.7191649208283
"153","Gyeongsangbuk-do_Chilgok-gun","Gyeongsangbuk-do",51,35.995529,128.401735,21,32,2,1.48,15.17,6.7,151,13.6487507798342,1.29287454323995,63.7191649208283
"154","Gyeongsangbuk-do_Pohang-si","Gyeongsangbuk-do",53,36.019052,129.343645,66,117,4,1.51,16.44,8,877,13.6487507798342,1.29287454323995,63.7191649208283
"155","Gyeongsangnam-do_Geoje-si","Gyeongsangnam-do",13,34.880519,128.621216,38,58,1,1.76,10.22,4.7,317,14.381790499391,1.86638246041413,64.3141291108404
"156","Gyeongsangnam-do_Geochang-gun","Gyeongsangnam-do",19,35.686526,127.910021,17,16,2,1.25,27.01,17.4,127,14.381790499391,1.86638246041413,64.3141291108404
"157","Gyeongsangnam-do_Goseong-gun","Gyeongsangnam-do",2,34.972986,128.322246,19,18,0,1.3,30.17,18.2,89,14.381790499391,1.86638246041413,64.3141291108404
"158","Gyeongsangnam-do_Gimhae-si","Gyeongsangnam-do",14,35.228678,128.889352,58,91,4,2.1,10.74,5.3,711,14.381790499391,1.86638246041413,64.3141291108404
"159","Gyeongsangnam-do_Namhae-gun","Gyeongsangnam-do",1,34.837688,127.892595,13,10,1,1.03,36.92,23.3,88,14.381790499391,1.86638246041413,64.3141291108404
"160","Gyeongsangnam-do_Miryang-si","Gyeongsangnam-do",5,35.503827,128.746604,21,25,0,1.39,27.31,16.3,178,14.381790499391,1.86638246041413,64.3141291108404
"161","Gyeongsangnam-do_Sacheon-si","Gyeongsangnam-do",3,35.003668,128.064272,18,20,0,1.84,21.17,11.7,191,14.381790499391,1.86638246041413,64.3141291108404
"162","Gyeongsangnam-do_Sancheong-gun","Gyeongsangnam-do",1,35.415544,127.87349,13,11,0,0.65,35.42,20.6,72,14.381790499391,1.86638246041413,64.3141291108404
"163","Gyeongsangnam-do_Yangsan-si","Gyeongsangnam-do",8,35.335016,129.037057,37,68,2,1.59,12.92,6.2,507,14.381790499391,1.86638246041413,64.3141291108404
"164","Gyeongsangnam-do_Jinju-si","Gyeongsangnam-do",12,35.180313,128.10875,45,53,6,2.49,16.27,8.6,597,14.381790499391,1.86638246041413,64.3141291108404
"165","Gyeongsangnam-do_Changnyeong-gun","Gyeongsangnam-do",9,35.544603,128.49233,17,20,0,0.8,29.8,18.4,129,14.381790499391,1.86638246041413,64.3141291108404
"166","Gyeongsangnam-do_Changwon-si","Gyeongsangnam-do",31,35.227992,128.681815,110,195,5,1.84,13.64,6.5,1701,14.381790499391,1.86638246041413,64.3141291108404
"167","Gyeongsangnam-do_Haman-gun","Gyeongsangnam-do",1,35.272481,128.40654,16,20,0,1.19,23.74,14.7,94,14.381790499391,1.86638246041413,64.3141291108404
"168","Gyeongsangnam-do_Hamyang-gun","Gyeongsangnam-do",1,35.520541,127.725177,13,12,0,1.01,32.65,20.9,83,14.381790499391,1.86638246041413,64.3141291108404
"169","Gyeongsangnam-do_Hapcheon-gun","Gyeongsangnam-do",10,35.566702,128.16587,17,15,0,0.71,38.44,24.7,96,14.381790499391,1.86638246041413,64.3141291108404
"170","Jeju-do_Jeju-do","Jeju-do",18,33.488936,126.500423,113,123,4,1.53,15.1,6.4,1245,16.5352009744214,1.48812423873325,69.7836784409257
